[{"id": 1000, "name": "19 Mayıs", "phone_number": "", "latitude": "40.2253944", "longitude": "28.9002472"}, {"id": 1001, "name": "23 Nisan-AtaBulvarı", "phone_number": "443-6355", "latitude": "40.2156167", "longitude": "28.9424194"}, {"id": 1002, "name": "29 Ekim Taksi", "phone_number": "413-59-60", "latitude": "40.2212444", "longitude": "28.91235"}, {"id": 1003, "name": "Ahmet Yesevi", "phone_number": "", "latitude": "40.2690583", "longitude": "28.9453389"}, {"id": 1004, "name": "Alaadinbey", "phone_number": "", "latitude": "40.2112389", "longitude": "28.922025"}, {"id": 1005, "name": "Altınşehir", "phone_number": "413-3164", "latitude": "40.2255944", "longitude": "28.9178778"}, {"id": 1006, "name": "Ataevler", "phone_number": "441-8800", "latitude": "40.2214861", "longitude": "28.9590667"}, {"id": 1007, "name": "Balat", "phone_number": "244-9918", "latitude": "40.2630944", "longitude": "28.9380722"}, {"id": 1008, "name": "Barış", "phone_number": "452-3366", "latitude": "40.2162639", "longitude": "28.9684917"}, {"id": 1009, "name": "Batı Garajı", "phone_number": "443-2574", "latitude": "40.2118056", "longitude": "28.9425806"}, {"id": 1010, "name": "Beşevler-Konak", "phone_number": "451-1818", "latitude": "40.2047167", "longitude": "28.980475"}, {"id": 1011, "name": "Beşevler-Merkez", "phone_number": "441-3200", "latitude": "40.2109556", "longitude": "28.9628444"}, {"id": 1012, "name": "CarrefourSA AVM", "phone_number": "452-6595", "latitude": "40.211475", "longitude": "28.9969667"}, {"id": 1013, "name": "Cumhuriyet Mah.", "phone_number": "451-9193", "latitude": "40.2205389", "longitude": "28.9687167"}, {"id": 1014, "name": "Çalı Merkez Taksi", "phone_number": "482-2424", "latitude": "40.1722167", "longitude": "28.9213889"}, {"id": 1015, "name": "Çamlıca", "phone_number": "453-4646", "latitude": "40.1948083", "longitude": "28.9834167"}, {"id": 1016, "name": "Demirci", "phone_number": "494-2050", "latitude": "40.1908944", "longitude": "28.9382472"}, {"id": 1017, "name": "Dörtçelik Çocuk Hast.", "phone_number": "413-5950", "latitude": "40.2194611", "longitude": "28.9185694"}, {"id": 1018, "name": "Ertuğrulkent", "phone_number": "413-3165", "latitude": "40.2205944", "longitude": "28.9004028"}, {"id": 1019, "name": "Esentepe", "phone_number": "", "latitude": "40.2267111", "longitude": "28.9852528"}, {"id": 1020, "name": "F.S.M. Bulvar-Acıbadem", "phone_number": "", "latitude": "40.2135472", "longitude": "28.9751222"}, {"id": 1021, "name": "Fethiye", "phone_number": "451-9193", "latitude": "40.2322111", "longitude": "28.9743583"}, {"id": 1022, "name": "Görükle-Balkan taksi", "phone_number": "", "latitude": "40.2173944", "longitude": "28.817975"}, {"id": 1023, "name": "Görükle-Dumlupınar", "phone_number": "483-3950", "latitude": "40.227925", "longitude": "28.8417528"}, {"id": 1024, "name": "Görükle-Kurtuluş", "phone_number": "470-0041", "latitude": "40.2154139", "longitude": "28.8292083"}, {"id": 1025, "name": "Görükle-Sakarya", "phone_number": "483-5323", "latitude": "40.2154139", "longitude": "28.8292083"}, {"id": 1026, "name": "Gümüştepe", "phone_number": "", "latitude": "40.1778778", "longitude": "28.82325"}, {"id": 1027, "name": "Hasanağa-Toki", "phone_number": "483-53-23", "latitude": "40.1774222", "longitude": "28.9715167"}, {"id": 1028, "name": "Işıktepe", "phone_number": "", "latitude": "40.2282528", "longitude": "28.96275"}, {"id": 1029, "name": "İhsaniye", "phone_number": "247-4733", "latitude": "40.2189722", "longitude": "28.9837611"}, {"id": 1030, "name": "Kızılcıklı Taksi", "phone_number": "483-4040", "latitude": "40.1970528", "longitude": "28.8066194"}, {"id": 1031, "name": "Kültür", "phone_number": "441-1818", "latitude": "40.20105", "longitude": "28.9637889"}, {"id": 1032, "name": "Minareli Çavuş", "phone_number": "241-7723", "latitude": "40.2474806", "longitude": "28.9411556"}, {"id": 1033, "name": "Nilüfer", "phone_number": "245-0598", "latitude": "40.2137611", "longitude": "28.9938583"}, {"id": 1034, "name": "Odunluk", "phone_number": "451-1042", "latitude": "40.2041222", "longitude": "28.9973972"}, {"id": 1035, "name": "Özlüce", "phone_number": "", "latitude": "40.2369639", "longitude": "28.9104694"}, {"id": 1036, "name": "Şehir Hastanesi", "phone_number": "", "latitude": "40.26935", "longitude": "28.9106278"}, {"id": 1037, "name": "Uludağ Üniveritesi Tıp Fak.", "phone_number": "442-9001", "latitude": "40.2202806", "longitude": "28.8718194"}, {"id": 1038, "name": "Uludağ Üniveritesi-İstasyon", "phone_number": "442-9001", "latitude": "40.2183944", "longitude": "28.8692917"}, {"id": 1039, "name": "Üçevler", "phone_number": "441-9050", "latitude": "40.1984806", "longitude": "28.9487"}, {"id": 1040, "name": "Acemler Kelebek", "phone_number": "235-61-03", "latitude": "0", "longitude": "0"}, {"id": 1041, "name": "Acemler Konur", "phone_number": "233-18-76", "latitude": "40.204925", "longitude": "29.0198222"}, {"id": 1042, "name": "Akpınar 1050 konutlar", "phone_number": "241-7723", "latitude": "40.2429528", "longitude": "28.9730806"}, {"id": 1043, "name": "Alemdar", "phone_number": "235-3522", "latitude": "40.2147111", "longitude": "29.0420639"}, {"id": 1044, "name": "Almira", "phone_number": "252-8638", "latitude": "40.197675", "longitude": "29.0569361"}, {"id": 1045, "name": "Altıparmak", "phone_number": "222-1644", "latitude": "40.1894528", "longitude": "29.0540528"}, {"id": 1046, "name": "Bağlarbaşı", "phone_number": "246-2022", "latitude": "40.233625", "longitude": "28.9856417"}, {"id": 1047, "name": "Bizim", "phone_number": "221-1919", "latitude": "40.1822139", "longitude": "29.0673806"}, {"id": 1048, "name": "Bölge Adliyesi", "phone_number": "211-5020", "latitude": "40.2302361", "longitude": "29.0701306"}, {"id": 1049, "name": "Cumhuriyet Cad. Taksi", "phone_number": "221-5221", "latitude": "40.1857306", "longitude": "29.0634917"}, {"id": 1050, "name": "Çakırhamam", "phone_number": "223-1069", "latitude": "40.1839389", "longitude": "29.0588722"}, {"id": 1051, "name": "Çarşamba Meydan", "phone_number": "271-3387", "latitude": "40.1942972", "longitude": "29.0550083"}, {"id": 1052, "name": "Çarşamba Valilik", "phone_number": "252-4999", "latitude": "40.1948556", "longitude": "29.0570778"}, {"id": 1053, "name": "Çarşı", "phone_number": "223-0707", "latitude": "40.1843667", "longitude": "29.0597889"}, {"id": 1054, "name": "Çekirge Askeri Hast.", "phone_number": "233-8129", "latitude": "40.2010694", "longitude": "29.017975"}, {"id": 1055, "name": "Çekirge Devlet Hast.S.S.K.", "phone_number": "239-7333", "latitude": "40.2030972", "longitude": "29.0164778"}, {"id": 1056, "name": "Çekirge Hizmet", "phone_number": "234-9636", "latitude": "40.2016361", "longitude": "29.0197722"}, {"id": 1057, "name": "Çekirge Hüdavendigar", "phone_number": "239-3900", "latitude": "40.1974944", "longitude": "29.0055028"}, {"id": 1058, "name": "Çekirge Meydan", "phone_number": "233-3003", "latitude": "40.2017083", "longitude": "29.0233306"}, {"id": 1059, "name": "Çelikpalas", "phone_number": "233-2779", "latitude": "40.1958278", "longitude": "29.0398278"}, {"id": 1060, "name": "Çınarlı", "phone_number": "223-0973", "latitude": "40.1833972", "longitude": "29.0609083"}, {"id": 1061, "name": "Demirtaş- Cumhuriyet Mh.", "phone_number": "", "latitude": "40.2482917", "longitude": "29.0895806"}, {"id": 1062, "name": "Demirtaş merkez", "phone_number": "", "latitude": "40.268575", "longitude": "29.0976861"}, {"id": 1063, "name": "Demirtaş-Dosab", "phone_number": "262-5500", "latitude": "40.2676917", "longitude": "29.0808528"}, {"id": 1064, "name": "DemirtaşPaşa", "phone_number": "271-5868", "latitude": "40.1885056", "longitude": "29.0710417"}, {"id": 1065, "name": "Devlet Hastanesi", "phone_number": "222-8781", "latitude": "40.1865778", "longitude": "29.0534306"}, {"id": 1066, "name": "Dikkaldırım Mihraplı", "phone_number": "", "latitude": "40.2017806", "longitude": "29.0052528"}, {"id": 1067, "name": "Doburca", "phone_number": "", "latitude": "40.1951722", "longitude": "29.0117722"}, {"id": 1068, "name": "Doğanbey", "phone_number": "", "latitude": "40.1883333", "longitude": "29.0649139"}, {"id": 1069, "name": "Doğumevi", "phone_number": "236-6706", "latitude": "40.2082", "longitude": "29.0182806"}, {"id": 1070, "name": "Dörtyol Çiçek", "phone_number": "223-7339", "latitude": "40.1852667", "longitude": "29.0696"}, {"id": 1071, "name": "Elmas", "phone_number": "252-3962", "latitude": "40.1906722", "longitude": "29.0722361"}, {"id": 1072, "name": "Emek", "phone_number": "241-7723", "latitude": "40.251825", "longitude": "28.9566528"}, {"id": 1073, "name": "Etibank", "phone_number": "250-2971", "latitude": "40.2018194", "longitude": "29.0496694"}, {"id": 1074, "name": "Flash", "phone_number": "220-6152", "latitude": "40.1917278", "longitude": "29.0506361"}, {"id": 1075, "name": "Fomara", "phone_number": "222-0438", "latitude": "40.1892806", "longitude": "29.0604056"}, {"id": 1076, "name": "Gazcılar", "phone_number": "253-3000", "latitude": "40.1926333", "longitude": "29.0644556"}, {"id": 1077, "name": "Geçit", "phone_number": "241-7723", "latitude": "40.2683611", "longitude": "28.9538056"}, {"id": 1078, "name": "Gençosman Varan", "phone_number": "250-0400", "latitude": "40.1997083", "longitude": "29.0615694"}, {"id": 1079, "name": "Güneştepe", "phone_number": "", "latitude": "40.2564611", "longitude": "29.0032583"}, {"id": 1080, "name": "Hamitler-Yunuseli Toki", "phone_number": "248-0553", "latitude": "40.2469222", "longitude": "29.995"}, {"id": 1081, "name": "Hipodrum", "phone_number": "215-8761", "latitude": "40.2056361", "longitude": "29.0802694"}, {"id": 1082, "name": "Hürriyet", "phone_number": "246-4866", "latitude": "40.2208833", "longitude": "29.0056694"}, {"id": 1083, "name": "İpekiş", "phone_number": "251-3120", "latitude": "40.1951889", "longitude": "29.05"}, {"id": 1084, "name": "Kafkas", "phone_number": "224-9591", "latitude": "40.1828806", "longitude": "29.0654611"}, {"id": 1085, "name": "Karamustafa", "phone_number": "232-1309", "latitude": "40.1990056", "longitude": "29.0397167"}, {"id": 1086, "name": "Kayhan", "phone_number": "225-2362", "latitude": "40.1840667", "longitude": "29.0687083"}, {"id": 1087, "name": "Kemer Çeşme", "phone_number": "253-2515", "latitude": "40.2047917", "longitude": "29.0736028"}, {"id": 1088, "name": "Kent Meydanı-Terminal", "phone_number": "254-8257", "latitude": "40.1958889", "longitude": "29.0610556"}, {"id": 1089, "name": "Kükürtlü", "phone_number": "236-1135", "latitude": "40.1986028", "longitude": "29.0353722"}, {"id": 1090, "name": "Kükürtlü Dallas", "phone_number": "233-8122", "latitude": "40.2061861", "longitude": "29.0235194"}, {"id": 1091, "name": "Muradiye", "phone_number": "221-2922", "latitude": "40.1895028", "longitude": "29.0458444"}, {"id": 1092, "name": "Nilüferköy", "phone_number": "", "latitude": "40.2849889", "longitude": "29.9351167"}, {"id": 1093, "name": "Panayır", "phone_number": "", "latitude": "40.2467722", "longitude": "29.9351167"}, {"id": 1094, "name": "Park", "phone_number": "235-5252", "latitude": "40.1931611", "longitude": "29.0435222"}, {"id": 1095, "name": "Pınarbaşı", "phone_number": "223-9391", "latitude": "40.1830944", "longitude": "29.0496639"}, {"id": 1096, "name": "Sırameşeler", "phone_number": "233-4544", "latitude": "40.2047583", "longitude": "29.0293361"}, {"id": 1097, "name": "Soğanlı", "phone_number": "", "latitude": "40.2115694", "longitude": "29.0442389"}, {"id": 1098, "name": "Stad", "phone_number": "221-4666", "latitude": "40.1903917", "longitude": "29.0503611"}, {"id": 1099, "name": "Tiyatro taksi", "phone_number": "220-0221", "latitude": "40.1835944", "longitude": "29.0666417"}, {"id": 1100, "name": "Ulucami-Meydan-1", "phone_number": "", "latitude": "40.195525", "longitude": "29.0595083"}, {"id": 1101, "name": "Uludağ", "phone_number": "222-3514", "latitude": "40.1861444", "longitude": "29.0575806"}, {"id": 1102, "name": "Uludağ birlik", "phone_number": "221-1141", "latitude": "40.1909889", "longitude": "29.0606167"}, {"id": 1103, "name": "Yeni Adliye", "phone_number": "250-34-46", "latitude": "40.1935056", "longitude": "29.0690583"}, {"id": 1104, "name": "Yeni Karaman", "phone_number": "246-0762", "latitude": "40.2220833", "longitude": "28.9969944"}, {"id": 1105, "name": "Yeni Stadyum-Dikkaldırım", "phone_number": "239-5551", "latitude": "40.2075056", "longitude": "29.0069194"}, {"id": 1106, "name": "Yenibağlar", "phone_number": "242-44-24", "latitude": "40.2517028", "longitude": "28.9784"}, {"id": 1107, "name": "Yunuseli", "phone_number": "248-96-03", "latitude": "40.2404306", "longitude": "29.0099333"}, {"id": 1108, "name": "Zafer", "phone_number": "", "latitude": "0", "longitude": "0"}, {"id": 1109, "name": "Zafer Plaza", "phone_number": "", "latitude": "40.1870889", "longitude": "29.0591972"}, {"id": 1110, "name": "Akçağlayan", "phone_number": "362-3050", "latitude": "40.173425", "longitude": "29.1000111"}, {"id": 1111, "name": "Bağlaraltı taksi", "phone_number": "", "latitude": "40.1823833", "longitude": "29.1354806"}, {"id": 1112, "name": "Beyazıt Tapu kadastro", "phone_number": "363-4542", "latitude": "40.1911583", "longitude": "29.0978333"}, {"id": 1113, "name": "Çınarönü", "phone_number": "", "latitude": "40.1975083", "longitude": "29.1353056"}, {"id": 1114, "name": "Çimen", "phone_number": "328-5554", "latitude": "40.1736583", "longitude": "29.0759278"}, {"id": 1115, "name": "Doğu Garajı", "phone_number": "364-2000", "latitude": "40.1919083", "longitude": "29.0856139"}, {"id": 1116, "name": "Duaçınarı-vişne", "phone_number": "360-1610", "latitude": "40.1959528", "longitude": "29.1010778"}, {"id": 1117, "name": "Eğitim İmaj", "phone_number": "361-0610", "latitude": "40.187375", "longitude": "29.1035917"}, {"id": 1118, "name": "Emirsultan", "phone_number": "328-6667", "latitude": "40.1811194", "longitude": "29.0798056"}, {"id": 1119, "name": "Erikli", "phone_number": "342-3206", "latitude": "40.1863972", "longitude": "29.14125"}, {"id": 1120, "name": "Güllük-Ortağlar", "phone_number": "", "latitude": "40.191325", "longitude": "29.1161083"}, {"id": 1121, "name": "İncirli", "phone_number": "327-0256", "latitude": "40.1827556", "longitude": "29.0846528"}, {"id": 1122, "name": "Mesken", "phone_number": "367-8807", "latitude": "40.1793139", "longitude": "29.1103222"}, {"id": 1123, "name": "Meydancık Emir", "phone_number": "326-5560", "latitude": "40.1847611", "longitude": "29.0753833"}, {"id": 1124, "name": "Millet", "phone_number": "360-6063", "latitude": "40.21585", "longitude": "29.0946139"}, {"id": 1125, "name": "Namazgah", "phone_number": "328-0182", "latitude": "40.1781444", "longitude": "29.0742611"}, {"id": 1126, "name": "Onur", "phone_number": "361-0153", "latitude": "40.1891333", "longitude": "29.0853361"}, {"id": 1127, "name": "Setbaşı", "phone_number": "328-9091", "latitude": "40.1807083", "longitude": "29.0706444"}, {"id": 1128, "name": "Siteler", "phone_number": "368-1618", "latitude": "40.1793083", "longitude": "29.1221556"}, {"id": 1129, "name": "Şevket Yılmaz Hast.", "phone_number": "368-2277", "latitude": "40.1837139", "longitude": "29.1274389"}, {"id": 1130, "name": "Teleferik", "phone_number": "326-7494", "latitude": "40.1721111", "longitude": "29.08285"}, {"id": 1131, "name": "Temenyeri", "phone_number": "328-9114", "latitude": "40.1764361", "longitude": "29.0637917"}, {"id": 1132, "name": "Yeşil", "phone_number": "327-6320", "latitude": "40.1816417", "longitude": "29.0739806"}, {"id": 1133, "name": "Yeşil-Şıble", "phone_number": "329-2151", "latitude": "40.1802139", "longitude": "29.0770917"}, {"id": 1134, "name": "Yeşilyayla", "phone_number": "365-0011", "latitude": "40.1815917", "longitude": "29.0988472"}, {"id": 1135, "name": "Yıldırım", "phone_number": "360-5368", "latitude": "40.1902139", "longitude": "29.0822722"}, {"id": 1136, "name": "Yıldırım-Kurtuluş", "phone_number": "329-4242", "latitude": "40.1867417", "longitude": "29.0780528"}, {"id": 1137, "name": "Yiğitler", "phone_number": "368-1618", "latitude": "40.1878833", "longitude": "29.1588583"}, {"id": 1138, "name": "Yunusemre", "phone_number": "360-1612", "latitude": "40.2110833", "longitude": "29.1029389"}, {"id": 1139, "name": "Yüksek İhtisas Hast.", "phone_number": "361-9719", "latitude": "40.1909833", "longitude": "29.1108472"}, {"id": 1140, "name": "Zümrütevler-Musababa", "phone_number": "362-25-25", "latitude": "40.1769639", "longitude": "29.0881389"}]